Time [s],Latitude [deg],Longitude [deg],Altitude [m],Vel N [m/s],Vel E [m/s],Vel D [m/s],Roll [deg],Pitch [deg],Yaw [deg]
0,0,0.00449157641139672,0.0195981991784909,99.9999972087228,99.9990250062228,-0.00783920328190391,-0.00449157640885534,0.00317600870314544,44.999721483138
0.2,0.000187867348721829,0.00466275394312636,0.0211545262379784,107.494126607053,87.8768675470579,-0.0075039182954697,-0.00466653704640112,0.0030966154427029,39.2661324198842
0.4,0.000387284575350884,0.00479838648980376,0.0225117974511091,112.398117440173,60.8824444206936,-0.00585850405560961,-0.00481399019482942,0.00262593047509311,28.4429801782562
0.6,0.00059177350003429,0.0048748977867703,0.0234239672957557,112.871627626588,22.8879025913832,-0.00311315467935458,-0.00491068469951425,0.00154877510955459,11.4629058318729
0.8,0.000792423156485389,0.00487743838154817,0.02371603816511,108.125144170508,-20.4068787797281,0.000241770443338396,-0.00494139043303099,-0.000125892200431719,-10.6879355065697
1,0.000980039342446543,0.00480232064238387,0.0233305633072002,98.6504911056793,-62.458105022706,0.00354759961489037,-0.00490130191170038,-0.00174085484619015,-32.3389286250007
1.2,0.00114745749348346,0.00465753242746157,0.0223436936238123,86.1666585073581,-97.0009302156959,0.00615948336950112,-0.00479679751630767,-0.00272003748674726,-48.3850727741885
1.4,0.00129149945713506,0.00446125672859804,0.0209440004537884,73.2862282699542,-119.11318087688,0.0076226444692935,-0.00464443564680011,-0.00312289195458061,-58.397449079063
1.6,0.00141411870895871,0.00423867522745497,0.0193829790692217,62.9667525817049,-126.033782562361,0.0077697487319881,-0.00446834418037424,-0.00315977909093748,-63.4531864282352
1.8,0.00152243989333444,0.00401763189944777,0.0179170300794853,57.8581590538959,-117.59511869307,0.00670849292510667,-0.00429641583021223,-0.0029328126822188,-63.8022801938487
2,0.00162762569056647,0.00382392544563752,0.0167611689114206,59.681973852786,-96.1988130565923,0.0047249060602681,-0.00415590790217504,-0.00239131630910332,-58.1844364367792
2.2,0.00174275152811282,0.00367705286987354,0.0160653516116251,68.7755326523108,-66.3466016563031,0.00216597625278325,-0.00406914001486959,-0.0012986576227249,-43.9701723652929
2.4,0.00188008632344136,0.00358713294956564,0.0159109080317841,83.9044471587874,-33.817007620953,-0.000636024178888306,-0.00404996877207652,0.000402833414520579,-21.9514999052965
2.6,0.00204832012823357,0.00355351647570646,0.0163154408361932,102.394912746682,-4.64012788643949,-0.00337282766051317,-0.00410159657532575,0.0018853541426503,-2.59464046150145
2.8,0.00225031627143924,0.0035652818558433,0.0172346697512226,120.573900082041,15.9439976886468,-0.00572772127334531,-0.00421605952936909,0.00269827991533423,7.53276088073973
3,0.00248188596342354,0.00360347703682738,0.0185580825971778,134.442310286051,24.3588733354869,-0.00735563993512756,-0.00437547765501561,0.00308455953349689,10.2697014531308
3.2,0.00273189989517668,0.0036446632718445,0.0201059030381455,140.45633638317,19.2466187404536,-0.00792135301057328,-0.00455487072156065,0.00320140852872812,7.80260023909588
3.4,0.00298379763277174,0.00366509772010582,0.0216403044903666,136.265756978299,1.61520143465048,-0.00719964573457332,-0.00472609662169783,0.00302702856077741,0.679113326017907
3.6,0.00321827978018986,0.00364479808060265,0.0228994464414953,121.26049958295,-25.4358018428237,-0.0051930849859616,-0.00486229143841216,0.00240147721546519,-11.8466985721495
3.8,0.00341672373178562,0.00357077771118848,0.0236511152399895,96.8087703061563,-57.3480070491793,-0.00219897239259126,-0.00494211032776715,0.0011197291973978,-30.6418395686566
4,0.003564700284107,0.00343891243037867,0.0237500435363674,66.1258508154945,-88.9694918375004,0.001225909717391,-0.00495310068449607,-0.000633631863683789,-53.3787234676449
4.2,0.0036549198774741,0.00325416564572269,0.0231773435999057,33.7820604214036,-115.487979644325,0.0044042736631198,-0.00489367272816262,-0.00209716271592738,-73.6949673128686
4.4,0.00368901678396947,0.00302920541872526,0.0220458248341972,4.92827399067109,-133.260242068011,0.00672810748660879,-0.00477335629921366,-0.00289080080827877,-87.8820339086948
4.6,0.00367777572846204,0.00278173782511462,0.0205689580554322,-15.6256872861127,-140.390807371716,0.00781904352472829,-0.00461130125507957,-0.0031714954913562,-96.350958843
4.8,0.0036396840834152,0.00253110211148229,0.0190064307450043,-24.3117599566946,-136.964412703028,0.00759494058178589,-0.00443325811384094,-0.00312826133144797,-100.065403233307
5,0.00359800314857652,0.00229478555771644,0.0176074592392419,-19.5137338193386,-124.904309846338,0.00622801689579333,-0.00426751299296431,-0.00282266010032168,-98.8795107597736
5.2,0.00357683609123441,0.00208550183308652,0.0165703671712287,-1.94745181938775,-107.499418242246,0.00403443241828283,-0.00414041955371961,-0.00214994678230018,-91.0378527422291
5.4,0.00359687351718189,0.00190934244362565,0.0160254350768598,25.3707075972326,-88.7039614281706,0.00136329434985427,-0.00407223368183515,-0.000846632209323564,-74.0386497441357
5.6,0.00367158004850134,0.00176528561401966,0.0160351606438897,57.5746309443965,-72.3523847493526,-0.00146026885461481,-0.00407390877642702,0.00090485683620183,-51.4888727420302
5.8,0.00380452831156384,0.00164607620958461,0.0165991957016679,88.7486805551803,-61.4431088105405,-0.00412782285859237,-0.00414535918106108,0.00219104451001744,-34.6959018062726
6,0.00398839777357315,0.00154022721529925,0.0176542076562504,112.941264235333,-57.6256655867614,-0.00631282219998752,-0.00427546681538763,0.00285266753665348,-27.0318953800919
6.2,0.00420586710887058,0.00143468821141968,0.0190687321915142,125.213349304843,-60.9813689752996,-0.00766446430557721,-0.00444383261480093,0.00315308676296102,-25.9669949070371
6.4,0.00443229159402727,0.00131761718587358,0.0206430403309927,122.533250519496,-70.1270705155675,-0.00786624193928276,-0.00462399432427621,0.00319236304991085,-29.7829608989086
6.6,0.00463973263861475,0.00118069738252627,0.0221266756881036,104.35328716591,-82.6068888021784,-0.00674809940686316,-0.00478760536016034,0.00290503809364158,-38.3654162597772
6.8,0.00480165474526525,0.00102055646967468,0.0232594035556315,72.7587131757279,-95.4807951279081,-0.00439681037222783,-0.00490891263054066,0.00209856371845902,-52.6917082220065
7,0.0048974731884032,0.000839045398761909,0.0238282785385402,32.1549774239037,-105.98240423827,-0.00119649460773985,-0.0049688268532537,0.000618982163428764,-73.1222442456027
7.2,0.00491614927502577,0.000642377065201837,0.0237221040722528,-11.4577951585585,-112.108093337945,0.00224002362552866,-0.00495794031173791,-0.00113889011417659,-95.8355444753018
7.4,0.00485818852250629,0.000439360768311788,0.0229620967623382,-51.4993213864065,-113.01722343853,0.00523334789272667,-0.00487801531327743,-0.00241428549692195,-114.497651417738
7.6,0.00473567321256892,0.000239150165185535,0.02169594145839,-81.9357367472365,-109.164816518586,0.00722789116515798,-0.00474170787492995,-0.00303405108582697,-126.890759994408
7.8,0.00457030556066808,4.90140993498514e-05,0.0201577586617653,-98.3197461802185,-102.144911722724,0.0079300400199287,-0.00457056835039349,-0.0032047646532546,-133.90684348082
8,0.00438978929932198,-0.000127375979568342,0.0186104460575423,-98.5600617875951,-94.2833935838091,0.00734170072119866,-0.00439163686259934,-0.00308405867620214,-136.270433986156
8.2,0.00422317235555915,-0.0002907668705461,0.0172920609365066,-83.2833684742764,-88.0711172887293,0.00569172563140796,-0.00423317014147754,-0.00269039875227302,-133.399537379835
8.4,0.00409595810715814,-0.000446073938587146,0.0163820195065428,-55.7243802922457,-85.5611861617666,0.00331748889411898,-0.00412017654374176,-0.00186155062121908,-123.07543631087
8.6,0.00402583390466047,-0.000601115357342143,0.015990173478165,-21.1635683880597,-87.8616383973925,0.000565242872710314,-0.00407046415181668,-0.000358353335163651,-103.543063278798
8.8,0.00401975566643903,-0.000764606765143983,0.016159892254302,13.987395530952,-94.8350901387603,-0.00224689262117472,-0.00409182828859264,0.00134295899790983,-81.6098343559919
9,0.00407288633554881,-0.000943857655210115,0.0168722859942982,43.2901250292662,-105.074011706345,-0.00480821924243457,-0.00418082171206636,0.00242419026438611,-67.6085103929863
9.2,0.00416955752336335,-0.00114268399027458,0.018044172156552,61.378674362066,-116.162891544503,-0.00678338603673723,-0.00432330152370274,0.00295824533352719,-62.1487201586554
9.4,0.00428606716140474,-0.0013600170035182,0.0195231849314885,64.8604541277177,-125.178137146382,-0.00782327533256932,-0.00449666742277622,0.00317937603639499,-62.6092832696364
9.6,0.00439480564558758,-0.00158955164478057,0.0210917338361333,52.8629841689245,-129.325418558775,-0.007642656717195,-0.00467343458168341,0.00313423809100597,-67.7672478659967
9.8,0.00446897603770286,-0.00182056615458329,0.022491408015144,27.1352370357609,-126.582771464644,-0.00613865519564882,-0.00482557849856709,0.00271684646050934,-77.9007606817397
10,0.0044870802612198,-0.00203979896477312,0.0234700193719538,-8.3072713010166,-116.21279018208,-0.00348673739106253,-0.00492896222394023,0.00171467247532102,-94.0887353681233
10.2,0.00443639822281466,-0.00223404010383386,0.0238400656978006,-47.9231029608927,-99.030104792635,-0.000150643855612032,-0.00496714846264029,7.84543510939903e-05,-115.823481436733
10.4,0.00431487859525054,-0.0023929286936309,0.0235280752465279,-85.633121330884,-77.3569614263434,0.00321815727545527,-0.00493399276906571,-0.00159780789216463,-137.906815670655
10.6,0.00413115207797978,-0.00251138128657076,0.0225950566614642,-115.876563690113,-54.6612276731277,0.0059590518862791,-0.00483460995431392,-0.00266487192644529,-154.745837099155
10.8,0.00390271601349688,-0.00259112397576751,0.0212194393163919,-134.546721943013,-34.9355423975479,0.00758477027471827,-0.00468456139291016,-0.00312625410295527,-165.444375238466
11,0.00365266139287523,-0.00264095807530324,0.0196497059280609,-139.643701965774,-21.9308533746116,0.00789155325202273,-0.00450739331559461,-0.0031986960390484,-171.074678170707
11.2,0.00340556152155592,-0.0026756266081081,0.0181458182938755,-131.536390746667,-18.3911821222286,0.00695945388235941,-0.0043309152511442,-0.00300225649454743,-172.040605683648
11.4,0.00318327242091633,-0.00271342211203862,0.0169304030623068,-112.798855878002,-25.4419722086011,0.00506206006338061,-0.00418280796714182,-0.00250824524780669,-167.289533856162
11.6,0.00300138719894464,-0.00277293245953864,0.0161621128092639,-87.6641825888654,-42.2600269270956,0.00254695819219819,-0.00408625494975077,-0.00149950663666037,-154.262809024906
11.8,0.00286694478910495,-0.00286950957634809,0.0159301889491355,-61.2068240557066,-66.1028341379576,-0.0002479437520293,-0.00405628614173903,0.000157691588522047,-132.797633376595
12,0.00277774686102235,-0.00301212721526649,0.0162592186605682,-38.4105501722018,-92.7081345141182,-0.00301163387327108,-0.00409741237022867,0.00171951684721256,-112.505055270475
12.2,0.00272333330503314,-0.003201249158143,0.0171119139214118,-23.2949954334568,-117.003471597271,-0.00543002000243575,-0.00420292041288189,0.00260785797297385,-101.260154604895
12.4,0.0026873639034094,-0.00342816315334276,0.0183854673224142,-18.2573497904525,-134.003791019459,-0.00716148240737269,-0.0043559415976858,0.00303399311545979,-97.7584940174511
12.6,0.00265090761654841,-0.00367597679477225,0.0199079085841495,-23.7407209261714,-139.735016068145,-0.00786669146660302,-0.0045321205125721,0.00318002271908793,-99.6423736387053
12.8,0.00259599544892194,-0.00392216619065899,0.0214470613348068,-38.2762145212713,-132.011117556167,-0.00730253900371736,-0.00470346466730487,0.00304409012071233,-106.169352675521
13,0.00250877230989248,-0.00414227338442944,0.0227417736662884,-58.8744030200471,-110.914200727192,-0.00544079290595789,-0.00484276435340567,0.00248252930617215,-117.959824142902
13.2,0.00238168776021101,-0.00431412013329095,0.02355376883402,-81.6772036645737,-78.8781157824587,-0.00254399317333309,-0.00492788682026188,0.00128369805647203,-135.998781464131
13.4,0.00221437153281471,-0.00442178854430167,0.0237254549506037,-102.735334124896,-40.3470660192248,0.00085674730361518,-0.00494526590374614,-0.000444742193910272,-158.558662530624
13.6,0.00201310505723801,-0.00445863792348153,0.0232223286554314,-118.757712275459,-1.058704088069,0.0040902030664256,-0.00489203880842099,-0.001973278674695,-179.48923174784
13.8,0.00178907245700803,-0.00442878169512351,0.0221426113531888,-127.690340758927,32.9282118179061,0.00653240320747273,-0.00477649318773349,-0.00283829272870934,165.53985941907
14,0.00155580115450185,-0.00434671269384997,0.0206900715044061,-129.020490913962,56.2917073297951,0.00777394272182619,-0.00461675515903108,-0.00316421842137954,156.428331702191
14.2,0.0013263408776297,-0.00423509285072234,0.019121371374354,-123.759340867715,65.4007082841863,0.00769908620189597,-0.0044379265012142,-0.00315140627171266,152.145756986669
14.4,0.00111075611798261,-0.00412105506358626,0.0176886828814296,-114.121063579258,58.9911414497461,0.00645538668577217,-0.00426812299355627,-0.00287909449501557,152.664779520558
14.6,0.000914418961909002,-0.00403163995547324,0.0165968464287203,-102.975890419622,38.4370824183455,0.00434809660447399,-0.00413403944044097,-0.00226653487793176,159.531261005173
14.8,0.000737407135513609,-0.00398915700381641,0.0159836848429371,-93.1973357206308,7.56126213375907,0.00172591145570777,-0.00405674040714844,-0.00105757941519783,175.36165292436
15,0.0005750745538323,-0.00400728614262591,0.0159189251007203,-87.0414819530484,-27.9883816919173,-0.00108388634251355,-0.00404833949948151,0.00067922620141827,-162.17469022052
15.2,0.000419617358925018,-0.00408861576258489,0.0164093505511611,-85.6859331099163,-61.6909240221084,-0.00377471397877116,-0.00411009213860008,0.00204838288390646,-144.247410924371
15.4,0.000262256596210139,-0.00422406627619248,0.0173996196443952,-89.0202425681209,-87.2680564363232,-0.00602627125380195,-0.00423219971312602,0.00276975508167812,-135.569462437922
15.6,9.55393257918691e-05,-0.00439431863765836,0.018767461176396,-95.7258215974687,-99.7669400429026,-0.00749203777495211,-0.00439535708476638,0.00310466065116378,-133.815781932824
15.8,-8.47539263287245e-05,-0.00457301345994084,0.0203222450305804,-103.622540296749,-96.4186851573117,-0.00784885670321955,-0.00457379873971048,0.00317718934861572,-137.062435919583
16,-0.00027851436862731,-0.004731172427246,0.0218196869366424,-110.203749454795,-77.1199728015344,-0.00690384563758073,-0.00473936310923201,0.00294080436932371,-145.015884493776
16.2,-0.000481261746482593,-0.00484207637187434,0.0229997252177145,-113.242448944247,-44.4521009636333,-0.00470784636011956,-0.00486593427765836,0.00221725876800825,-158.568046265412
16.4,-0.000685162251111991,-0.00488575308064727,0.0236419678469798,-111.336634304385,-3.23406189690338,-0.00160717748659067,-0.00493356165594697,0.000826732937487579,-178.336163033765
16.6,-0.000880885630448473,-0.00485229737648487,0.0236212443074036,-104.274413549644,40.3108037446569,0.00181071234395347,-0.00493160713881508,-0.000928004003824331,158.86430342758
16.8,-0.00105989406081951,-0.00474345367252199,0.0229418662881543,-93.1367833534845,79.6265272134094,0.00486928745378634,-0.00486042464081011,-0.00227681440188637,139.471484623324
17,-0.00121665430947553,-0.00457219935894094,0.0217364361672293,-80.110502618906,108.944885883745,0.00699267823411276,-0.00473130573666685,-0.00296277543259174,126.328180736591
17.2,-0.00135026985025196,-0.00436042027904739,0.0202296682112166,-68.0443242768944,124.257329277348,0.00785286427471021,-0.00456470078093031,-0.00317598153035681,118.705471515608
17.4,-0.00146514112567458,-0.00413510353689743,0.0186822135252622,-59.8366387829932,123.969427737977,0.00741690406262308,-0.00438699431946726,-0.00308712313313592,115.765327702348
17.6,-0.00157045869970216,-0.00392372810797922,0.0173359093377924,-57.7801505578399,109.12702064167,0.00588949869943178,-0.00422634383345755,-0.00273278312373787,117.900150647494
17.8,-0.00167857671005986,-0.00374966506535173,0.0163773575363797,-63.0016959774711,83.1807834526866,0.00359794212697295,-0.00410823653834797,-0.00197559371298422,127.140537771025
18,-0.00180255397382327,-0.0036283844190309,0.0159245450675351,-75.1197880708188,51.3385590638549,0.000887823780928443,-0.00405146569206488,-0.000559075118101128,145.650417117274
18.2,-0.001953338199638,-0.0035651090824835,0.016028846445775,-92.2015625540758,19.6274486328161,-0.00192207593107696,-0.00406516080233945,0.00116823738999899,167.98252027152
18.4,-0.00213716539490821,-0.0035542884985087,0.0166795949882966,-111.042223011233,-6.16275518022001,-0.00452423910810751,-0.00414734159257616,0.00233083866341812,-176.823388562872
18.6,-0.00235372964480929,-0.00358093504067667,0.0178027668002029,-127.725196275257,-21.4653992944714,-0.00658856175618894,-0.0042852232943751,0.0029146647041694,-170.460063292415
18.8,-0.00259554811595253,-0.00362353600003793,0.0192557905697172,-138.362815612532,-23.679417541289,-0.00776550335001502,-0.00445722816797029,0.00316959815161296,-170.288481998654
19,-0.00284872512072038,-0.00365798254493819,0.0208294931033275,-139.877203572458,-12.5434377954065,-0.00775546444020847,-0.0046363855377147,0.00316405691349883,-174.875727980661
19.2,-0.0030950486163814,-0.00366179252672516,0.0222693482862547,-130.667513886362,9.91402484863969,-0.00642489218887476,-0.00479458550787695,0.00280914661518183,175.661159072545
19.4,-0.00331508463379716,-0.00361787398956554,0.0233197784575454,-111.026137252982,39.8259053687364,-0.0039091175003847,-0.0049070151425693,0.00189885775742188,160.26671031777
19.6,-0.00349172266565243,-0.00351718311730206,0.0237820471018813,-83.2104134459236,72.2450333123506,-0.000636149382188478,-0.00495607747906239,0.000330760060465261,139.034796671717
19.8,-0.00361351133429918,-0.00335985126994355,0.0235659674679752,-51.1399498912112,102.06229167726,0.00275970296436157,-0.0049341731517105,-0.00138509429077959,116.613894715328
20,-0.00367713393016088,-0.00315464731991577,0.022714926543551,-19.7609821754344,124.912579123816,0.00560933734993085,-0.00484490591987121,-0.00254132619819846,98.9896066060348
20.2,-0.00368850951152703,-0.00291694816224998,0.0213937743433323,5.81526615806004,137.904510903798,0.00739513414416226,-0.00470251936681606,-0.00306976002397419,87.5853369685024
20.4,-0.00366224481657972,-0.00266565496515127,0.0198446653186262,21.2463089195551,140.047802183387,0.0078736742729113,-0.00452965269246501,-0.0031848042165074,81.3735759031712
20.6,-0.00361946247758805,-0.00241966752402958,0.0183288519601423,23.7913436385612,132.31263903121,0.00709065267407638,-0.00435376837827376,-0.00302202307160907,79.8064839260153
20.8,-0.00358433653588426,-0.00219458402263143,0.0170757442655374,12.8838946997632,117.326203277115,0.00529990915413414,-0.00420281661132793,-0.00257272381453896,83.7333109405681
21,-0.00357991932300262,-0.00200022187175212,0.0162531787789709,-9.67153315784673,98.7792820432688,0.00284413919820814,-0.00410081818347395,-0.00164185898166703,95.5920370391706
21.2,-0.00362399531616279,-0.00183937441347422,0.015959611128175,-39.9277552985034,80.66782596521,6.42339989127549e-05,-0.00406406694563991,-4.08887879088817e-05,116.333802038691
21.4,-0.0037257166044788,-0.00170796574143541,0.0162281850494344,-72.4196014040447,66.5209512424978,-0.00272619391975581,-0.00409854988248987,0.00158845282971779,137.431003207935
21.6,-0.00388365439237057,-0.0015964919960861,0.017030017149224,-101.082444987476,58.7637532879756,-0.00521423083134209,-0.00419899489480944,0.0025551434955464,149.82864478681
21.8,-0.00408566074034549,-0.00149239539206074,0.0182710704019698,-120.305440137511,58.3317416575942,-0.007059388932106,-0.00434969737906557,0.0030252040832094,154.132937055862
22,-0.00431061647736052,-0.00138285266160201,0.0197876757607874,-125.93204905742,64.6004823004827,-0.00791527441310791,-0.00452699634715167,0.00320424217510377,152.843134083148
22.2,-0.00453180213408282,-0.00125740222320521,0.0213531628739235,-116.026162479768,75.629961181582,-0.00751731338412753,-0.00470300870249708,0.00310984526904665,146.902267374497
22.4,-0.00472133084377255,-0.00110989237238571,0.0227061885153056,-91.2613052426568,88.6609846524549,-0.00580270777612668,-0.00485003357011836,0.00261299157000564,135.828007599288
22.6,-0.00485488074041744,-0.000939391599473325,0.0236008274398976,-54.8563160591757,100.752743073357,-0.0029962868749962,-0.00494492908455097,0.0014964858810861,118.566733755023
22.8,-0.00491589770766642,-0.000749927737460594,0.0238651832215358,-12.0616976510901,109.425687587476,0.000397364113620569,-0.00497276999208282,-0.000206809049800546,96.2901655750172
23,-0.00489852133189313,-0.000549168480088119,0.0234472644852713,30.7181261272673,113.176618111877,0.00371103124632555,-0.00492920859754122,-0.00181311614242878,74.8147481916689
23.2,-0.0048087043899152,-0.000346372140724591,0.0224295300005147,67.0149896923518,111.762347918945,0.0063000563529414,-0.00482116286761919,-0.00276996834295535,59.0522361739304
23.4,-0.00466331102846342,-0.00015008125573676,0.0210059762380238,91.4084219289668,106.198226278389,0.0077179204120057,-0.00466572542051338,-0.00315590098590606,49.2803032466856
23.6,-0.00448733475092372,3.3925213500742e-05,0.0194313698673399,100.461940671334,98.4779091189036,0.00780974581620342,-0.00448746295604457,-0.00318076179693721,44.4286068582238
23.8,-0.00430971033788602,0.000203970229803439,0.0179628767699086,93.3180367422073,91.0788757725594,0.00669501894208224,-0.00431453437308579,-0.00294173655688355,44.3042824520399
24,-0.00415844367930429,0.000362815319554102,0.0168142948303279,71.8460003186767,86.362586271845,0.00466760168528424,-0.00417424106854419,-0.00238056926654293,50.2425513964449
24.2,-0.00405590489898969,0.000516922299461556,0.0161332364494752,40.3162667409088,85.9999417986465,0.00207805282147433,-0.0040887129005751,-0.00125355228633749,64.8830928046045
24.4,-0.00401510107335839,0.00067480106537902,0.0159982292327807,4.65926231164859,90.5474863397952,-0.000739917174065852,-0.00407141163131401,0.000467579157247833,87.0543541621579
24.6,-0.00403757056482222,0.000844805333970749,0.0164237873246376,-28.5594908517116,99.2686174771958,-0.00347623540944042,-0.00412500567192278,0.00192819777331887,106.050478854866
24.8,-0.00411325312503943,0.00103286417116962,0.0173620664499685,-53.2663639818706,110.243211001626,-0.0058113233536119,-0.00424095032470767,0.00271946978699779,115.788503827047
25,-0.00422234061299309,0.00124066145564655,0.0186984396849444,-64.9100303327438,120.748734116237,-0.007398111379743,-0.00440084092058257,0.00309199560527047,118.260822194512
25.2,-0.00433876548933334,0.00146469193009592,0.0202489976617487,-61.2153848666235,127.838308810678,-0.00790360029100157,-0.00457932397149012,0.00319490612429946,115.587433892843
25.4,-0.00443470062664036,0.00169644685833373,0.0217728653690544,-42.5320040761857,128.998021492194,-0.00711143120800983,-0.00474810499059947,0.00299976894529747,108.247931237157
25.6,-0.00448527480670599,0.00192374909845732,0.0230075537826693,-11.7218029493785,122.746004028949,-0.00503890557770603,-0.00488042012034376,0.00234142459879796,95.454999084974
25.8,-0.00447268277544966,0.00213301335730335,0.0237234025025249,26.3866986752426,109.043800617499,-0.00199966825013576,-0.00495526355669984,0.00102122814214014,76.3969090730261
26,-0.0043889897526351,0.00231200221487039,0.0237806340215441,65.8733257354435,89.4251602316422,0.0014375610847992,-0.0049607040814997,-0.000741581766734741,53.6234962969308
26.2,-0.00423717406182952,0.00245252499390157,0.0231673655213226,100.769349160224,66.8022051531809,0.00459271515578052,-0.0048957658212934,-0.00217652206345616,33.5412683278748
26.4,-0.00403027225111633,0.00255251195527887,0.0220029316159737,126.080747657643,44.9733551493965,0.00686516032800455,-0.00477057765656547,-0.00293844079792126,19.6314594931604
26.6,-0.00378882953703795,0.00261699667129834,0.0205050852690995,138.611150426665,27.9187799060258,0.00789081972905592,-0.00460476933488314,-0.00319750402928599,11.3880314061927
26.8,-0.00353715309651299,0.00265773803375141,0.0189347111064415,137.444021131733,19.0152271787579,0.00760305657129834,-0.00442436698731673,-0.00313955423145244,7.87680611161872
27,-0.00329906412323957,0.00269147356130375,0.0175394492007817,124.008343588497,20.323335759567,0.00618565206329436,-0.00425768177641648,-0.00282034234565945,9.30728510794652
27.2,-0.00309391266583018,0.0027370677758214,0.0165143405337541,101.7291320294,32.0921836894638,0.00396019689893023,-0.00413083951239836,-0.00212712307692906,17.5087656701148
27.4,-0.00293354761194837,0.00281205012669202,0.0159858371707667,75.3391256094233,52.5887368210723,0.0012763374279956,-0.00406365933049754,-0.000795933538192507,34.9160774281203
27.6,-0.00282073919379152,0.00292917971339492,0.0160127307163582,49.9872632960603,78.3005645293283,-0.00154209251556381,-0.00406652961398543,0.000951119507873521,57.4457440327213
27.8,-0.00274927188117461,0.00309369829670225,0.0165911934034373,30.3123674677824,104.489641624052,-0.00418743735481186,-0.00413877578134179,0.00220521790658211,73.8225952562334
28,-0.00270561510450962,0.00330183041777245,0.0176545051837484,19.6513919070809,126.006625846843,-0.00633351027357065,-0.00426877465762806,0.00284547957051858,81.1358283442937
28.2,-0.00267179604819285,0.00354087577333493,0.0190680309263687,19.5211665630065,138.221922934722,-0.00763180268106822,-0.00443579698175907,0.00313245057271917,81.9612479397704
28.4,-0.00262889449709908,0.00379095196349982,0.0206297577959818,29.4572070181913,137.902680461105,-0.00777269378092527,-0.00461328545436997,0.00315814992462277,77.9423372442885
28.6,-0.00256049014428965,0.00402813792651542,0.0220888474733337,47.2238162536216,123.869394632022,-0.00659816298531979,-0.00477304980452772,0.00285176590523871,69.1312137400655
28.8,-0.00245543123174502,0.00422849759234979,0.023187414523933,69.3397684805142,97.30194363508,-0.00420942003641755,-0.00488971716016613,0.00201858303898765,54.5253890769592
29,-0.00230944880018641,0.00437228161432711,0.023717553235117,91.806550864166,61.6264449354775,-0.0010022665634466,-0.00494473457391255,0.000519348682676001,33.8720453638645
29.2,-0.00212538021578375,0.00444754887699284,0.0235747484020997,110.892007597444,21.9903071519165,0.00240654223007652,-0.00492929325789033,-0.00121966429952929,11.216455178525
29.4,-0.00191204091918313,0.00445253237806642,0.0227866904945851,123.817212705855,-15.5907655947686,0.00534353435227786,-0.00484571408464902,-0.00245332057966296,-7.17677595224676
29.6,-0.00168204073924152,0.00439628379274123,0.0215055096925806,129.218739360673,-45.2675450666098,0.00726685565095408,-0.00470707680445317,-0.00304093770841836,-19.3062347126609
29.8,-0.0014490316110366,0.00429743137999028,0.0199666636134089,127.306800087502,-62.3908251960591,0.00789921826914508,-0.00453515254906449,-0.00319236577030288,-26.1086620902189
30,-0.00122496219967544,0.00418122319919165,0.0184313519946928,119.702094078263,-64.357064441096,0.0072557140409657,-0.00435696677788673,-0.00305889358406921,-28.2644125578472
30.2,-0.00101788738788597,0.00407534044725412,0.0171339330777113,108.998167648548,-51.1100205181171,0.00557176457215292,-0.00420053501798967,-0.00265178750266642,-25.1222166085073
30.4,-0.000830745445707416,0.00400519627511691,0.0162494853563045,98.1491312431417,-25.2019468892022,0.00318480155640088,-0.00409044433093343,-0.00180075168409307,-14.4008396551086
30.6,-0.000661302482682266,0.00398954025824032,0.0158839413351261,89.8144818632647,8.60392495583109,0.000437533706730164,-0.00404397726356141,-0.000277845974192091,5.47204455450347
30.8,-0.000503216806255637,0.00403714693905161,0.0160775136698248,85.797650284608,44.125408473397,-0.00235560000476198,-0.00406838820122388,0.00139890834840198,27.2165882423347
31,-0.0003479452783036,0.00414518437285666,0.0168087409805206,86.6922233121624,74.8119512592399,-0.00488596515172901,-0.0041597619321409,0.00244473846445881,40.7928910386095
31.2,-0.000187045794577431,0.00429956707487017,0.0179921758579108,91.8045182549832,94.870101795559,-0.00681950260725728,-0.00430363371574267,0.00295969187482473,45.9408306900907
31.4,-1.4357576890174e-05,0.00447724906651955,0.0194735681506234,99.3626664321597,100.265298934583,-0.00781010597380316,-0.00447727211562198,0.00317006915696686,45.2590653083316
31.6,0.000172422524208229,0.00465006952039705,0.0210344031408469,106.962496132025,89.4223557845115,-0.00757931769598486,-0.00465326508688127,0.00311483038520905,39.8961621734345
31.8,0.000371112718795111,0.00478948780040719,0.0224170802613172,112.151375254095,63.5000800044653,-0.006034539785432,-0.00480384404669921,0.0026827454815579,29.5185280718657
32,0.000575504717334844,0.00487138643474013,0.0233723993527604,113.022654473709,26.1911317860488,-0.00336206605199152,-0.00490526366671551,0.00166036969531731,13.0470590973423
32.2,0.000776808181522679,0.00488010845985698,0.0237177037572669,108.691163015931,-16.917243024698,-3.27110251419072e-05,-0.00494154723903312,1.70382420389305e-05,-8.84682178453967
32.4,0.000965765551108335,0.00481103183026724,0.0233851177807257,99.5447896637204,-59.3079010017544,0.00330208041786761,-0.00490700823505493,-0.00163277889315043,-30.786109973257
32.6,0.00113497104306671,0.00467124347453847,0.022440447787793,87.2136025897372,-94.6527657459238,0.00598929283809468,-0.00480714831203814,-0.00266623091537625,-47.3423526434079
32.8,0.00128087399230752,0.00447821199498732,0.0210648684251109,74.2568971234523,-117.888467459209,0.00755406114799939,-0.00465779137382709,-0.00310649368622346,-57.7935389433465
33,0.00140500212190296,0.00425671015143282,0.0195070185586553,63.6281262260161,-126.060247134014,0.00780518715755107,-0.00448258988420729,-0.0031669877104676,-63.2179226038935
33.2,0.00151409484265038,0.00403454278770117,0.0180248581803581,58.0257694939826,-118.788683183543,0.00683124500500298,-0.00430929441251234,-0.00296060073003831,-63.9654652805801
33.4,0.00161906009477936,0.00383783844724555,0.0168378860297553,59.2649277355774,-98.2825090454733,0.00490854501795468,-0.00416537621550404,-0.00245049106262358,-58.9097772501215
33.6,0.00173291597648915,0.00368672819007554,0.016101578240962,67.8040579358512,-68.9025569777722,0.00238283282820362,-0.0040736914646213,-0.00141230226265087,-45.4603874096463
33.8,0.00186810023423566,0.00359215292229624,0.0159025667068903,82.5334001896194,-36.3617124067792,-0.000411266462521098,-0.00404887153119318,0.000261273609546134,-23.7768340531622
34,0.00203368071459821,0.00355432762261546,0.0162633784206423,100.881385047441,-6.70920940740635,-0.00316452277098733,-0.00409500939368818,0.00179333526411695,-3.80490543111902
34.2,0.00223304572223302,0.00356308749570941,0.0171447594267813,119.232274422038,14.7166896418746,-0.0055621544229183,-0.00420500717343105,0.00265270300210951,7.03635784675322
34.4,0.00246258270065907,0.00360000351372719,0.0184416761339875,133.584805274477,24.1817231425087,-0.00726088243769141,-0.00436168991499989,0.00306445623505781,10.2606550094094
34.6,0.00271167750895563,0.00364184464612492,0.0199797288053607,140.33030403081,20.1402673156688,-0.00792166994293098,-0.00454050952858439,0.00320155176286715,8.16734306935387
34.8,0.00296411680750436,0.00366473695977655,0.0215247807627698,137.000084948824,3.41658854606021,-0.00730603818814757,-0.0047134154510227,0.00305456045070359,1.42857967445986
35,0.00320070003595704,0.00364826518878954,0.0228151251351683,122.832151983777,-23.0371777798695,-0.00539486751591767,-0.00485327927865803,0.00247334365275792,-10.6224262038851
35.2,0.00340261887003539,0.00357879663746706,0.0236139967309787,99.0369754990375,-54.7491951949428,-0.00246176676522225,-0.00493817783863756,0.00124642523165294,-28.9345066327694
35.4,0.00355499056707667,0.00345147087504936,0.0237673986127569,68.6963435636568,-86.5803943429426,0.000953209069677996,-0.00495485709704192,-0.00049414886234459,-51.5701112073331
35.6,0.00364987315925129,0.00327055846145983,0.0232456764876048,36.2980592712226,-113.658655034834,0.00417559489874009,-0.00490082917730874,-0.00200516196070349,-72.288583431907
35.8,0.00368815989790877,0.00304819770128456,0.0221518522950427,6.97961412381612,-132.222373081551,0.00658509239524019,-0.00478477085598577,-0.00284954373327075,-86.9783357770701
36,0.00367993821485289,0.00280181254526656,0.0206931987101834,-14.3876167603209,-140.223446694449,0.00778112031656164,-0.00462515929952427,-0.00316278738657384,-95.8583283947764
36.2,0.00364317224583082,0.002550743120024,0.0191279064323119,-24.1071486646663,-137.589273328404,0.0076581799228741,-0.00444735814399492,-0.00314121540324655,-99.9379730352322
36.4,0.00360087790441502,0.00231274239790172,0.0177078034294127,-20.3883588624905,-126.110178119964,0.00637178428522844,-0.00427961430365258,-0.00285779304624631,-99.1836040727999
36.6,0.00357724776414484,0.00210098855771454,0.0166361925266796,-3.75685216208294,-108.989828474252,0.00423112445899809,-0.00414859666800212,-0.0022229751615078,-91.9741895682552
36.8,0.00359339454677493,0.00192213716502711,0.0160489214736481,22.942955456891,-90.1581034816852,0.00158568661557368,-0.00407518038613188,-0.000976584660112541,-75.7227121052361
37,0.00366347505466728,0.00177571779501832,0.0160136802727849,54.9668221330842,-73.4870803202025,-0.00123704164700911,-0.00407114521694184,0.000772337292530684,-53.2042682869818
37.2,0.00379191058794458,0.00165491069335464,0.0165350359383698,86.4473014404148,-62.0639456649468,-0.00392856424011256,-0.00413730772026537,0.00211512509352256,-35.6760655238869
37.4,0.00397224055585841,0.0015484734253628,0.0175548383439193,111.396489490537,-57.6579149126283,-0.00616471069605495,-0.00426338655948791,0.00281592510891906,-27.3657155605916
37.6,0.004187863500604,0.00144337615832573,0.018947203751076,124.758755403595,-60.4755858282302,-0.00759538702097018,-0.00442962024297738,0.00313886589928547,-25.8613338645749
37.8,0.00441458424364064,0.00132758651337865,0.0205174956188678,123.324327482509,-69.2394224580993,-0.00789769009422514,-0.00460988500565579,0.0031994497202826,-29.3116716937573
38,0.00462455817047132,0.0011924410192017,0.0220180956791398,106.336186801937,-81.5592517923708,-0.00688538123135629,-0.00477581968265521,0.00294378417998868,-37.4880014015767
38.2,0.00479096411577883,0.00103414769070017,0.0231875777073485,75.6753848118569,-94.5095241327039,-0.00462200269710422,-0.0049013057784661,0.00218727510197169,-51.3151502661742
38.4,0.00489259449491173,0.000854158980642269,0.023807049975656,35.5843578106078,-105.286690194232,-0.00146901328443505,-0.00496659525741633,0.000757334798585726,-71.3259889632048
38.6,0.00491755297088225,0.000658395471700101,0.0237556642068018,-8.02937457441911,-111.808595825682,0.00197395251995935,-0.00496143241317498,-0.00100894420377848,-94.1075630753699
38.8,0.00486539754524404,0.000455538933630877,0.0230438015134224,-48.5906771657872,-113.133300714496,0.00502566834366291,-0.00488667667159019,-0.00233864351150994,-113.243490671218
39,0.00474733527226819,0.000254800900243601,0.0218101646454974,-79.9816657837765,-109.614664997701,0.00711448038336471,-0.00475416823268577,-0.00300407054149211,-126.116811998975
39.2,0.00458441627398794,6.36726856684114e-05,0.0202840137826919,-97.5959067372114,-102.768099282503,0.00792316273268057,-0.00458485844342168,-0.00320310996876557,-133.521296256747
39.4,0.00440402813336792,-0.000113844226845503,0.0187280996047319,-99.1352370288347,-94.8806042615971,0.00743148567477192,-0.00440549931656505,-0.00310292789499843,-136.256255336207
39.6,0.00423529329693829,-0.000278139548031766,0.0173840117520176,-85.0076060467595,-88.4523594699748,0.0058543587020381,-0.00424441639115825,-0.0027342113421045,-133.862308707644
39.8,0.00410416722974406,-0.00043383088876736,0.0164365099728204,-58.255120214566,-85.5919681853546,0.00352480265997457,-0.00412703256690356,-0.00195059567738494,-124.239764326407
40,0.00402908834298748,-0.000588571460376898,0.0160009716921601,-24.0251066587246,-87.4970350795988,0.000790651944658549,-0.00407185078305016,-0.000499264380059501,-105.353980510189
40.2,0.00401793248661849,-0.00075108911708409,0.0161258481977893,11.3216803756441,-94.1341269623686,-0.00202794807805873,-0.00408753181345208,0.00122550126944689,-83.1418754655013
40.4,0.00406679289462942,-0.000928887942217437,0.016797190155485,41.307358080725,-104.190878283943,-0.00462111037933965,-0.00417152694056378,0.00236232116546665,-68.3737294397309
40.6,0.00416078293692652,-0.00112612491131717,0.0179371430897492,60.4438247219331,-115.316341286938,-0.00665588710359089,-0.00431048390034622,0.00292905069249879,-62.33842106194
40.8,0.00427670239635256,-0.0013421482957674,0.0193989013709024,65.1558644052056,-124.605057526575,-0.00778226095961543,-0.00448235929241533,0.00317107371970467,-62.3949753752632
41,0.00438708251026451,-0.0015710553687402,0.0209694985036776,54.3604357547698,-129.228023929241,-0.00770576999911299,-0.00465990422739576,0.00314921870520283,-67.1856923495199
41.2,0.00446488891113155,-0.00180241962453762,0.0223923073919375,29.6049889490426,-127.08045953986,-0.00630474539575587,-0.00481497136547229,0.00276844031121012,-76.8861263072511
41.4,0.00448805644343762,-0.00202309331175021,0.0234125381547738,-5.25267313626927,-117.309063322897,-0.00373069169311879,-0.00492296219781051,0.00182031059858959,-92.563784108318
41.6,0.00444307307044368,-0.00221975894142976,0.023835467031617,-44.7586086794259,-100.602178191386,-0.000426677431846656,-0.00496671200873413,0.000222022500325161,-113.984613919553
41.8,0.00432701204019744,-0.00238173128477749,0.0235773185349341,-82.8374792494035,-79.1712799515772,0.00296486158761411,-0.0049391979467952,-0.00148249209072071,-136.296361392929
42,0.00414769738923699,-0.00250343579207201,0.0226885232503982,-113.85022779407,-56.4129398133624,0.0057768673905656,-0.00484464487730186,-0.00260498663543163,-153.641523287148
42.2,0.00392202450220656,-0.00258602831632025,0.0213395982856639,-133.545846333273,-36.305049435525,0.00750289462521891,-0.00469785254192944,-0.00310626268894894,-164.791431770923
42.4,0.00367278311685105,-0.00263776999990841,0.0197755896669319,-139.741488843432,-22.6468508279103,0.00791512047888432,-0.00452185428494083,-0.00320350345500643,-170.794539137424
42.6,0.00342458613264311,-0.00267300367325626,0.0182575761512497,-132.61786483344,-18.2879011298095,0.00707342980257408,-0.0043442765055172,-0.00302733237214698,-172.148475080649
42.8,0.00319964884381507,-0.00270985042793749,0.0170124510602662,-114.588953014368,-24.4989971418109,0.00524045219239611,-0.00419297529906382,-0.00256237693232213,-167.931911032928
43,0.0030141665915011,-0.0027670045306812,0.0162043898709117,-89.7830184813592,-40.616040629277,0.00276174279680674,-0.00409163954201007,-0.00160576371813384,-155.658956034171
43.2,0.002875906892444,-0.00286020009120884,0.0159280359180631,-63.2412562869598,-64.0394012066512,-2.25066587873357e-05,-0.00405605530583313,1.43277405415074e-05,-134.64071731836
43.4,0.00278339228660377,-0.00299901368118138,0.0162129372846774,-39.9885135752695,-90.6052959860081,-0.00279990609877956,-0.00409162012352785,0.00161982088815071,-113.814194780852
43.6,0.002726749221457,-0.00318463250683865,0.0170267942845433,-24.1490189877773,-115.27441823908,-0.00525794995915874,-0.00419249867482836,0.00255787581441569,-101.831875849732
43.8,0.00268999331208748,-0.00340906058445903,0.0182722316740264,-18.2661075148686,-133.02014471005,-0.00705702984848955,-0.00434255202935347,0.00301141560264518,-97.8188619094289
44,0.0026542687912263,-0.00365598215892946,0.0197827014920905,-22.9419150333496,-139.756432038181,-0.00785490690703128,-0.00451789199065521,0.00317773578612822,-99.3223259545805
44.2,0.00260140529191835,-0.00390319791942739,0.0213299965124509,-36.8496559441397,-133.132558090687,-0.00739638833163525,-0.00469065704480815,0.00306780956860789,-105.47151434853
44.4,0.00251712427737107,-0.00412625171324191,0.0226535852038552,-57.0997683037733,-113.041333228587,-0.00563234824237924,-0.00483341153606771,0.00254816290673737,-116.799387023062
44.6,0.00239332252233499,-0.00430262995317033,0.0235111956513739,-79.8755468417602,-81.7363467564209,-0.00280148574287864,-0.00492347611239572,0.00140450711006017,-134.340325342471
44.8,0.00222905930901847,-0.00441578873632791,0.0237369227776895,-101.206170120168,-43.5236255265025,0.000582999657993355,-0.00494650331465129,-0.000303204294739029,-156.729919498363
45,0.00203013646451312,-0.00445827138729801,0.0232856028696557,-117.7238887822,-4.07106415156519,0.00385448374149178,-0.0048987383964079,-0.0018748422171699,-178.019417454714
45.2,0.00180743404671447,-0.00443332346128944,0.0222454335338615,-127.260958946394,30.5493196479339,0.006378319817955,-0.00478760634982469,-0.00279233699437238,166.501419017285
45.4,0.00157439652576127,-0.00435466941133916,0.02081349554071,-129.178255108782,54.9193593796503,0.00772366577069761,-0.00463053666955813,-0.00315266763391618,156.967520294681
45.6,0.001344211146671,-0.00424443987323929,0.0192444176981863,-124.373709344479,65.2439222219425,0.00775115437483009,-0.00445220993725303,-0.00316208855973569,152.319408918724
45.8,0.00112725574535451,-0.0041295722511675,0.0177925791156813,-114.983436230094,60.0546047850579,0.00659063498726198,-0.00428066261673538,-0.00291096454212226,152.422421720011
46,0.000929313800661517,-0.00403728880227784,0.0166676256547537,-103.848811192576,40.5162173482435,0.00453931871672353,-0.00414286428327351,-0.00233316362643085,158.686946801982
46.2,0.000750878692090561,-0.00399043328598582,0.0160129255511305,-93.8671271155302,10.2740967317704,0.00194570916465864,-0.0040604650641717,-0.00118059528841278,173.753634425592
46.4,0.000587634290159811,-0.00400348562486966,0.0159034417054199,-87.3633393337578,-25.1376852404223,-0.000860458976077894,-0.00404638244355191,0.000542314121814742,-163.947502934393
46.6,0.000431953377562748,-0.00407996514063931,0.0163508424065157,-85.6123284570544,-59.2277900386806,-0.00357210926232199,-0.00410276721750803,0.00196600572027878,-145.323980409083
46.8,0.000275048537242822,-0.00421169492256372,0.0173048693961284,-88.6071240771636,-85.6572035439642,-0.00587112616135244,-0.00422066644047108,0.00272953289547603,-135.969801779731
47,0.000109283117498784,-0.00438007469691338,0.0186487645239877,-95.1157958016044,-99.3320080963389,-0.00741218758213336,-0.00438143775332297,0.00308801158156667,-133.757850089255
47.2,-6.98727574477265e-05,-0.00455915537838277,0.0201970850646349,-103.009031462217,-97.2860345588039,-0.00786689137557062,-0.00455969076445458,0.00318121721555755,-136.636657281253
47.4,-0.000262671113964601,-0.00471998912494489,0.0217087351469717,-109.784076664493,-79.1966511490771,-0.00702747117045988,-0.00472729240848188,0.0029744304908789,-144.193862724398
47.6,-0.00046495567182528,-0.00483550196429589,0.0229230277937318,-113.170051649627,-47.4419008583968,-0.00492225544597602,-0.00485780429194456,0.00229826619141237,-157.256131706455
47.8,-0.000669100505544229,-0.00488504302803023,0.0236142386917336,-111.682852900717,-6.68881021810866,-0.0018745216498246,-0.00493065316962785,0.000959951058977739,-176.572586138734
48,-0.000865813262912722,-0.00485782200537896,0.0236479528654272,-105.008257494833,36.9138490731068,0.00154292981915205,-0.00493437605581823,-0.000794226285885359,160.631751364144
48.2,-0.00104640759644654,-0.00475464415992434,0.0230177091114309,-94.1273912759255,76.7949059980655,0.00465369067677557,-0.00486842987276922,-0.00219490069893158,140.790321941443
48.4,-0.00120504064915107,-0.00458765427495038,0.0218468196298469,-81.1522655865425,107.084645543203,0.00686744394774053,-0.004743278860327,-0.00292850069503944,127.156045706792
48.6,-0.00134040781023375,-0.004378152528587,0.020354593249891,-68.899859234571,123.605333163103,0.00783319639755575,-0.00457874571946115,-0.00317154077680081,119.13608997801
48.8,-0.0014564905281074,-0.00415288310863884,0.0188009741848025,-60.2889353350068,124.555930490305,0.00749542045246443,-0.00440088655254773,-0.00310346114736812,115.828422561994
49,-0.00156214398357524,-0.00393945978690546,0.0174309444529613,-57.6830662417233,110.774664829264,0.00604377995011163,-0.00423788117762176,-0.00277262906264542,117.507090913355
49.2,-0.00166955213522052,-0.00376173503403239,0.0164362757486882,-62.3180034874639,85.5396100188451,0.00380017855486869,-0.00411558679385218,-0.00205734344333134,126.074387152277
49.4,-0.00179181967086318,-0.00363591627502456,0.0159404659621255,-73.9382138583963,53.9502167262537,0.00111133011667164,-0.00405345590003747,-0.00069567897393727,143.88303380882
49.6,-0.00194016426230066,-0.0035680868910051,0.015999986966866,-90.7282912656556,22.0066968479167,-0.00170180042064771,-0.00406146288606321,0.00104441885257897,166.365871996312
49.8,-0.0021212775196762,-0.00355352884576994,0.0166090626469098,-109.567403434952,-4.44401952598771,-0.00433216588753282,-0.00413852453567952,0.00226354643378907,-177.677374232468
50,-0.00233541547475609,-0.0035779171423113,0.0176989106583282,-126.570082453638,-20.7065091170997,-0.00645213149373092,-0.00427266378855208,0.00288243454427202,-170.708877678569
50.2,-0.00257565758048685,-0.00362012380528212,0.0191325261996125,-137.817297330153,-24.0040600688348,-0.00771204860228636,-0.00444289409031353,0.00315863301337489,-170.11973334304
50.4,-0.00282855811143373,-0.00365609099616064,0.0207055724842245,-140.13978325849,-13.8851546696807,-0.00780439526070609,-0.00462252551076665,0.00317525866098566,-174.341559328318
50.6,-0.0030761455012327,-0.00366305851686923,0.0221657924853854,-131.79977288448,7.79237173077134,-0.00657799524330471,-0.00478337419410576,0.00285459045568304,176.616451771273
50.8,-0.00329895507582246,-0.0036233897993182,0.0232556383886124,-112.931348144616,37.283292933655,-0.00414452064195814,-0.00490021002486055,0.0019967237339373,161.729813719532
51,-0.00347956198868846,-0.00352733697449181,0.0237697310044646,-85.6416033086211,69.6938451122284,-0.000910391494969076,-0.00495474094909984,0.000472409258789311,140.861823545925
51.2,-0.00360595838311067,-0.00337429881742513,0.0236078647071835,-53.7371992482123,99.8933460594449,0.00250098519266828,-0.00493850463861117,-0.00126329792383534,118.277840102266
51.4,-0.00367411881055806,-0.00317241323576417,0.022802733776701,-22.1120959506826,123.427448946481,0.00541611282282517,-0.0048542099365534,-0.00247479232963051,100.156824529914
51.6,-0.00368922452672539,-0.00293663357207209,0.0215108047003139,4.1012699676603,137.267168489108,0.00729955828941709,-0.00471531486555748,-0.00304550121949908,88.2886251948365
51.8,-0.0036652499467265,-0.00268570796473166,0.019970158684341,20.4662558079926,140.263643471863,0.00788402099478702,-0.00454390630945893,-0.0031867693739636,81.6983988517081
52,-0.00362291187296729,-0.00243866434677926,0.0184426144364574,24.0892119870649,133.237575306297,0.00719415672731216,-0.00436721585938084,-0.00304432621308117,79.7516933307789
52.2,-0.00358628935309528,-0.00221146871720327,0.0171615292952198,14.2178430664832,118.702798721703,0.00547155180723813,-0.00421331991920921,-0.0026222797714344,83.1698329973699
52.4,-0.0035786812470871,-0.00201446243531214,0.0163001656400529,-7.52941890038839,100.291946260164,0.0030558789847257,-0.00410670404517601,-0.00174089373876391,94.2934270398388
52.6,-0.00361842963395385,-0.00185101095623095,0.0159624330689342,-37.3578824019277,82.0057655841655,0.000290016160754192,-0.00406439103552276,-0.00018439618124584,114.491727622375
52.8,-0.00371546735911842,-0.00171754785977294,0.0161864784249636,-69.8925834820838,67.4365317846691,-0.0025107982305741,-0.00409324659330265,0.0014812125324251,136.024592605648
53,-0.00386923853172304,-0.00160492385740647,0.0169483925830527,-99.0786577786946,59.115267647005,-0.00503498616754428,-0.00418888854917956,0.00250041667365267,149.177590826912
53.2,-0.00406840883634974,-0.00150072399349644,0.0181595453617409,-119.230553029959,58.1030082637313,-0.00694435193778986,-0.00433637207473058,0.00299984056880338,154.019264862635
53.4,-0.00429246851560537,-0.00139204416617061,0.0196617976489156,-126.043709515809,63.8944929939391,-0.00789054103198339,-0.0045125461216971,0.00319923077993443,153.118487800103
53.6,-0.00451499117122246,-0.00126815157961243,0.0212327837482547,-117.385280400877,74.63900311614,-0.00759811524387999,-0.00468970721982001,0.00312957113299022,147.549907808194
53.8,-0.00470800816310149,-0.00112250278328736,0.0226123153755826,-93.7171591366456,87.6202473355823,-0.00598416117718159,-0.0048399745026778,0.00267244133405995,136.925668728978
54,-0.00484674760217329,-0.000953744758750029,0.0235510861619444,-58.0687285752661,99.8875036767456,-0.00324940667167795,-0.00493969548948978,0.00161136658239444,120.171204390889
54.2,-0.00491390866491326,-0.000765546389924436,0.0238693120331759,-15.5568823612869,108.903166020667,0.000120869752493036,-0.00497318400188105,-6.29525309616517e-05,98.129734846102
54.4,-0.00490271224419703,-0.000565353722560399,0.0235044256667981,27.4675489684382,113.072346700135,0.00346607312133074,-0.0049352013249506,-0.00170668699014047,76.3461731051892
54.6,-0.00481817674066348,-0.00036238282504522,0.0225285476254661,64.4997504040776,112.047692127603,0.00613265689466402,-0.00483178522314075,-0.00271781172601371,60.0733108891367
54.8,-0.00467637675267203,-0.000165314845745493,0.0211283951513747,89.9980242201974,106.751190818739,0.00765348215198003,-0.00467929782671361,-0.00314061680322887,49.866987126704
55,-0.00450179742351654,1.97904135363604e-05,0.0195560803765933,100.340732079143,99.1144862206866,0.00784965554572636,-0.00450184092552133,-0.00318885387591412,44.647751371209
55.2,-0.00432323437503887,0.000190902634161274,0.0180705248067707,94.4532890451329,91.5979252116189,0.00682174891196041,-0.00432744713017575,-0.00297063785733734,44.120739660319
55.4,-0.00416894754902545,0.000350443184937902,0.01689012499271,73.9936826751536,86.5944381663735,0.00485427293510554,-0.00418365081638357,-0.0024418306300419,49.4865949024928
55.6,-0.00406191006191022,0.000504629549957895,0.0161680774299371,43.0634831410282,85.8481446670338,0.00229682685469612,-0.00409313618159457,-0.00137019566957016,63.3605620203199
55.8,-0.0040159762569084,0.000661884904636015,0.0159882391967356,7.49580050848694,90.0145384546712,-0.000514458616022395,-0.00407015442513026,0.000326332120638472,85.2397787850344
56,-0.00403362958272429,0.000830661004831827,0.0163700719776823,-26.1532055389367,98.4598354317036,-0.00326863673650379,-0.00411827212243481,0.00183833885003941,104.875579676215
56.2,-0.00410569041498491,0.00101715568666615,0.0172708056453978,-51.7304681915324,109.347440017341,-0.0056481063921936,-0.0042298107536555,0.00267522453985312,115.318058015536
56.4,-0.00421301728153418,0.00122343919863784,0.0185813270331822,-64.5311749606856,119.999473627125,-0.007307397152573,-0.0043870625263504,0.00307289593884514,118.26968170969
56.6,-0.00432988476778912,0.00144642838377587,0.0201230632798549,-62.0802780332474,127.463028079117,-0.00790924910806012,-0.00456509112236076,0.00319632832166379,115.968183407662
56.8,-0.00442843058340276,0.00167797838059189,0.0216587012654554,-44.5163380964227,129.1661128263,-0.00722348945303963,-0.00473567400986685,0.00302934561870691,109.016209493726
57,-0.0044833845939369,0.00190613128252739,0.0229256478663186,-14.5159649593783,123.526402174323,-0.00524538101344163,-0.00487176290027923,0.00241636057033496,96.7022636841483
57.2,-0.00447625521247102,0.00211731616797834,0.0236894386306893,23.2203020823192,110.381634200147,-0.00226496300809487,-0.00495175606437011,0.00115049324662748,78.1202575147146
57.4,-0.00439825844152699,0.00229908492148853,0.0238013624847566,62.822049140398,91.1431885604607,0.00116521108202505,-0.0049629092450824,-0.00060310618491715,55.4227617811699
57.6,-0.00425151028376709,0.00244283700089868,0.0232387215150609,98.2854468685026,68.6279177729118,0.00436707159943239,-0.00490334499497225,-0.0020873115586801,34.9247121089224
57.8,-0.00404831987666469,0.00254596251421337,0.0221111810386555,124.505024160608,46.5874209058436,0.00672695860906458,-0.00478234447288313,-0.00289934503981876,20.514896814758
58,-0.00380876005180127,0.00261292450576577,0.0206305125175872,138.118421023367,29.016054458444,0.00785822566754746,-0.00461887731523777,-0.00319019624931067,11.8642233697289
58.2,-0.00355699230859353,0.00265499324754471,0.019056353493639,138.019451687102,19.3666685494186,0.00767099702792962,-0.00443860143527719,-0.00315355367738166,7.98750186625634
58.4,-0.00331703079191853,0.00268860233773417,0.0176391434723917,125.45795081104,19.8265412165742,0.00633279107616147,-0.00426980975537132,-0.0028566896650583,8.98037564609071
58.6,-0.00310870903105274,0.00273256953765731,0.0165789989899725,103.721470107845,30.800028629431,0.00415871209013119,-0.00413896220227306,-0.00220222994466599,16.5387554720808
58.8,-0.00294455240326767,0.00280466114254105,0.0160079414355537,77.4696209135119,50.7094819862315,0.00149907105520697,-0.00406651115109205,-0.000927638143476136,33.2076543721968
59,-0.00282807295219473,0.00291812983629302,0.0159899371440094,51.8527977701982,76.1680982990573,-0.00131990360090839,-0.00406367789603627,0.000820736101161336,55.754222097412
59.2,-0.00275372858288599,0.00307889028485644,0.0165260636859273,31.5822307325211,102.508246833694,-0.00399056887538762,-0.00413068837133248,0.00213160631379531,72.8762205996852
59.4,-0.00270847855246887,0.00328390389109113,0.0175547757433874,20.1218435070286,124.579711149943,-0.00618908094975623,-0.00425674536224772,0.00281001843992867,80.8249491944003
59.6,-0.0026745797589918,0.00352113817652736,0.0189469864079801,19.1443045465762,137.677549693214,-0.0075673760200381,-0.00442174069788745,0.00311922186921208,82.0836827073712
59.8,-0.00263305621546796,0.00377118327955094,0.0205056634432484,28.3399263543829,138.429758442892,-0.00780901099965092,-0.00459943561305491,0.00316645764299944,78.4300375627199
60,-0.00256717457895148,0.00401029979359467,0.0219826251775984,45.5983666535775,125.476859496023,-0.00673942933586602,-0.00476160577229871,0.00289232700840641,70.0288247827994
60.2,-0.00246528696073318,0.00421439638614876,0.0231185555116863,67.5126915767344,99.809303001756,-0.00443658871303398,-0.0048824969485251,0.00210955367730185,55.9249182004137
60.4,-0.00232254928803675,0.00436324527487599,0.0236994251495297,90.0966053447061,64.6884777781749,-0.00127405351129539,-0.00494288829507124,0.000658146362179789,35.6779757318088
60.6,-0.00214125780901766,0.00444417665229939,0.023610988395651,109.569385634969,25.1524425884734,0.00214386479024142,-0.00493312186107348,-0.00109264530839863,12.928666889919
60.8,-0.00192982071448234,0.00445456508416237,0.0228701923689575,123.055640688804,-12.815618753024,0.00514110000780477,-0.00485462227044217,-0.00238086420125625,-5.94562992612527
61,-0.0017006425939905,0.00440262155837461,0.0216204003826154,129.069135375363,-43.3141126688211,0.00715927280185724,-0.0047196675134005,-0.00301297679157424,-18.5511584771033
61.2,-0.00146739678506604,0.00430629978621309,0.020092469277657,127.69664593525,-61.5636941505352,0.00789749917257154,-0.00454944733651505,-0.00319191833590063,-25.7391313964335
61.4,-0.00124225827045401,0.00419046194225062,0.0185476649089976,120.459483200634,-64.7742017838689,0.00734915592079233,-0.00437071813400875,-0.00307870083149171,-28.26807716168
61.6,-0.00103365147474153,0.0040827660587516,0.0172239875940394,109.894640265522,-52.6781582897049,0.00573629256611241,-0.00421158093697332,-0.00269689527428584,-25.6107986192842
61.8,-0.000844939904978061,0.00400897623494642,0.0163018656973837,98.9518473592047,-27.6288081887569,0.0033924243946899,-0.00409704934929977,-0.00189194022898118,-15.6005135100979
62,-0.00067427609958473,0.00398851274975107,0.0158926976513075,90.3366875165726,5.76216565071105,0.000661992880282014,-0.00404510592561346,-0.000419015511325828,3.64969235686165
62.2,-0.00051558423645918,0.0040310292275817,0.016041721726278,85.9370428706565,41.3894064002463,-0.00213862388471853,-0.00406386803097071,0.00128462956853736,25.7166170381214
62.4,-0.000360414103643563,0.00413463188298877,0.0167323861003449,86.4495523851697,72.6901755880084,-0.00470173339903113,-0.00415031066822988,0.00238506253997901,40.0584398629107
62.6,-0.000200230755502769,0.0042860713332944,0.0178845425919321,91.2789941991974,93.7711646448746,-0.00669565965792174,-0.00429074578776164,0.00293158274257708,45.7715865650498
62.8,-2.86233583477678e-05,0.00446289109718848,0.0193494611371846,98.7256234837392,100.427139819488,-0.00777316469049083,-0.00446298289705765,0.00316252022758786,45.4895103194934
63,0.000157055411667286,0.00463717090465177,0.0209131454997386,106.415281454514,90.8708589970447,-0.00764623160559097,-0.00463982972013279,0.00313072272409105,40.4949009283524
63.2,0.000354978423891226,0.00478021981016599,0.0223196177986447,111.876701016348,66.0444903494637,-0.00620326662586024,-0.00479338202517913,0.00273576697896135,30.554748756039
63.4,0.000559216609351472,0.00486740511209007,0.0233168974330196,113.139999749863,29.4570853347306,-0.00360671129529067,-0.00489942401618315,0.00176756543096863,14.5935135817627
63.6,0.000761113920416093,0.00488227889628858,0.0237149985767605,109.225976269876,-13.4229535521241,-0.000307157143964787,-0.00494124896407065,0.000159919860781554,-7.00604098311995
63.8,0.000951364425299407,0.00481928903213304,0.0234357242100043,100.418388139511,-56.1123362537819,0.00305235545631888,-0.00491229483327949,-0.00152032927631759,-29.1958243201907
64,0.00112233407732063,0.0046846129663735,0.0225344348742661,88.2563647768737,-92.2266782840978,0.00581182717239415,-0.00481718097357537,-0.00260860822292389,-46.2602043905748
64.2,0.0012701076236728,0.00449498509705805,0.0211845765309542,75.2424635941606,-116.566843256945,0.00747699396785606,-0.00467098102882748,-0.00308775386300194,-57.1582547762964
64.4,0.00139578792742375,0.00427474176334724,0.0196315588511404,64.3218492168692,-125.987388514863,0.00783275654313798,-0.00449684784131809,-0.00317257858174821,-62.9537809669111
64.6,0.00150572246421257,0.00405161837685739,0.0181345945377865,58.2374957134183,-119.89716596069,0.00694794729601256,-0.004322361786966,-0.00298657121271079,-64.0928233266609
64.8,0.00161055117498471,0.00385204552256963,0.0169175024601097,58.8950198199759,-100.309207735571,0.00508837115657457,-0.00417518018678845,-0.00250636040064613,-59.5813249984545
65,0.00172321747973462,0.00369676778681138,0.0161412450777414,66.8726276898812,-71.438289084615,0.00259800436609225,-0.00407867258789636,-0.0015211938362171,-46.8906546219244
65.2,0.00185630995196422,0.00359753834486834,0.0158978069678264,81.1858660819109,-38.9251177006568,-0.000186253290308969,-0.00404823029378796,0.000118526372139469,-25.6157066138453
65.4,0.00201925931227312,0.00355543861932713,0.0162146507062747,99.3680868901736,-8.83132331391496,-0.00295398209584619,-0.00408883261281204,0.00169658300291344,-5.07880950773745
65.6,0.00221597028225848,0.00356107425536129,0.0170575205208396,117.865085421584,13.4123550828496,-0.00539215840765905,-0.00419425486668932,0.00260439160382442,6.49199775300717
65.8,0.00244340648876858,0.0035965615557278,0.0183268332735716,132.678449727736,23.9176484880124,-0.00715949209370592,-0.00434804437479433,0.00304270725327427,10.2188337304405
66,0.00269147795558849,0.00363890398665751,0.0198536150628366,140.139460047389,20.9523496230978,-0.00791377410894256,-0.00452611041806301,0.00319996558803006,8.50334606360362
66.2,0.00294433523861326,0.00366412291968847,0.0214076273151493,137.664624852934,5.15545809632086,-0.00740405388063436,-0.0047005219709446,0.00307939585181723,2.14469053306042
66.4,0.00318289837386844,0.00365139150128071,0.0227276386410453,124.341745638448,-20.6722543840241,-0.00559002162005129,-0.00484391388329498,0.00254096456859197,-9.43928954521436
66.6,0.0033881960867809,0.00358644375869245,0.0235727163517,101.222914263244,-52.1509923460632,-0.00272143048132989,-0.00493380698729444,0.00136936790495659,-27.2579472605512
66.8,0.00354491154088014,0.00346368528112052,0.0237804012042347,71.2534352859113,-84.1605562159871,0.000679256930681049,-0.00495615910661565,-0.000352930350861349,-49.7475154151563
